{
"type": "FeatureCollection",
"name": "stations",
"crs": { "type": "name", "properties": { "name": "urn:ogc:def:crs:EPSG::32632" } },
"features": [
{ "type": "Feature", "properties": { "sensor_id": "10279", "station_id": 705, "station_name": "Milano Pascal Città Studi", "municipality": "Milano", "province": "MI", "no2": 26.36931922723091, "no2_std": 18.674755616602607, "n_valid": 8696, "elevation": 122.0, "latitude": 45.478347, "longitude": 9.231667 }, "geometry": { "type": "Point", "coordinates": [ 518106.336963259382173, 5036117.022686450742185 ] } },
{ "type": "Feature", "properties": { "sensor_id": "5504", "station_id": 501, "station_name": "Milano v.Marche", "municipality": "Milano", "province": "MI", "no2": 38.946651409298958, "no2_std": 19.421706274335836, "n_valid": 8302, "elevation": 129.0, "latitude": 45.49631883, "longitude": 9.19093444 }, "geometry": { "type": "Point", "coordinates": [ 514918.068492109829094, 5038105.265279727987945 ] } },
{ "type": "Feature", "properties": { "sensor_id": "5507", "station_id": 504, "station_name": "Sesto San Giovanni v. Cesare da Sesto", "municipality": "Sesto San Giovanni", "province": "MI", "no2": 34.31054088340445, "no2_std": 22.329764652894681, "n_valid": 8671, "elevation": 139.0, "latitude": 45.53476819, "longitude": 9.23610903 }, "geometry": { "type": "Point", "coordinates": [ 518435.085608666413464, 5042386.269655114039779 ] } },
{ "type": "Feature", "properties": { "sensor_id": "5517", "station_id": 514, "station_name": "Rho via Buon Gesù", "municipality": "Rho", "province": "MI", "no2": 32.91088466355459, "no2_std": 17.898167690456944, "n_valid": 8783, "elevation": 152.0, "latitude": 45.52342919, "longitude": 9.0446025 }, "geometry": { "type": "Point", "coordinates": [ 503483.205083784065209, 5041100.392065004445612 ] } },
{ "type": "Feature", "properties": { "sensor_id": "5520", "station_id": 517, "station_name": "Turbigo", "municipality": "Turbigo", "province": "MI", "no2": 16.597451470763367, "no2_std": 11.260670686903971, "n_valid": 8397, "elevation": 141.0, "latitude": 45.52655611, "longitude": 8.73650211 }, "geometry": { "type": "Point", "coordinates": [ 479423.433875050162897, 5041480.580739382654428 ] } },
{ "type": "Feature", "properties": { "sensor_id": "5531", "station_id": 528, "station_name": "Milano Verziere", "municipality": "Milano", "province": "MI", "no2": 34.997400046221401, "no2_std": 20.850468023886148, "n_valid": 8654, "elevation": 116.0, "latitude": 45.46334886, "longitude": 9.19532511 }, "geometry": { "type": "Point", "coordinates": [ 515270.02306333987508, 5034443.23550689034164 ] } },
{ "type": "Feature", "properties": { "sensor_id": "5532", "station_id": 529, "station_name": "Cinisello Balsamo v.Lincoln", "municipality": "Cinisello Balsamo", "province": "MI", "no2": 41.537096586275197, "no2_std": 20.807795237111598, "n_valid": 8583, "elevation": 149.0, "latitude": 45.55232831, "longitude": 9.22776572 }, "geometry": { "type": "Point", "coordinates": [ 517778.115250258822925, 5044335.280583247542381 ] } },
{ "type": "Feature", "properties": { "sensor_id": "5534", "station_id": 531, "station_name": "Pioltello Limito", "municipality": "Pioltello", "province": "MI", "no2": 30.303303055326179, "no2_std": 19.622048650470749, "n_valid": 8477, "elevation": 114.0, "latitude": 45.48363242, "longitude": 9.32736196 }, "geometry": { "type": "Point", "coordinates": [ 525583.149641657015309, 5036730.230223811231554 ] } },
{ "type": "Feature", "properties": { "sensor_id": "5542", "station_id": 539, "station_name": "Milano v.Liguria", "municipality": "Milano", "province": "MI", "no2": 36.149097065462755, "no2_std": 19.468245646403542, "n_valid": 7974, "elevation": 115.0, "latitude": 45.44386047, "longitude": 9.16794489 }, "geometry": { "type": "Point", "coordinates": [ 513134.029709899972659, 5032273.312957269139588 ] } },
{ "type": "Feature", "properties": { "sensor_id": "5547", "station_id": 544, "station_name": "Cormano v. Edison", "municipality": "Cormano", "province": "MI", "no2": 29.535566951566953, "no2_std": 20.093205514774123, "n_valid": 8775, "elevation": 153.0, "latitude": 45.547597, "longitude": 9.166983 }, "geometry": { "type": "Point", "coordinates": [ 513034.850740169524215, 5043797.973695167340338 ] } },
{ "type": "Feature", "properties": { "sensor_id": "5548", "station_id": 545, "station_name": "Motta Visconti v. De Gasperi", "municipality": "Motta Visconti", "province": "MI", "no2": 18.51965432675464, "no2_std": 11.340597941251851, "n_valid": 8563, "elevation": 100.0, "latitude": 45.28196356, "longitude": 8.98857592 }, "geometry": { "type": "Point", "coordinates": [ 499104.034829862066545, 5014273.817781541496515 ] } },
{ "type": "Feature", "properties": { "sensor_id": "5549", "station_id": 546, "station_name": "Magenta v. F. Turati", "municipality": "Magenta", "province": "MI", "no2": 26.558641552511418, "no2_std": 16.178916614794051, "n_valid": 8760, "elevation": 137.0, "latitude": 45.46242074, "longitude": 8.88021388 }, "geometry": { "type": "Point", "coordinates": [ 490635.270291690248996, 5034328.549401648342609 ] } },
{ "type": "Feature", "properties": { "sensor_id": "5551", "station_id": 548, "station_name": "Milano v.Senato", "municipality": "Milano", "province": "MI", "no2": 32.261708482676227, "no2_std": 20.601672011283359, "n_valid": 8370, "elevation": 118.0, "latitude": 45.470501, "longitude": 9.19746075 }, "geometry": { "type": "Point", "coordinates": [ 515435.029934509657323, 5035238.220700969919562 ] } },
{ "type": "Feature", "properties": { "sensor_id": "5554", "station_id": 551, "station_name": "Arconate v. De Gasperi", "municipality": "Arconate", "province": "MI", "no2": 18.817778574844571, "no2_std": 11.107853772900693, "n_valid": 8364, "elevation": 182.0, "latitude": 45.54852147, "longitude": 8.84732669 }, "geometry": { "type": "Point", "coordinates": [ 488082.372494289069436, 5043898.456191908568144 ] } },
{ "type": "Feature", "properties": { "sensor_id": "5609", "station_id": 606, "station_name": "San Giuliano Milanese via Milano", "municipality": "San Giuliano Milanese", "province": "MI", "no2": 29.637733631127308, "no2_std": 16.173408795601681, "n_valid": 8507, "elevation": 97.0, "latitude": 45.39619767, "longitude": 9.28269897 }, "geometry": { "type": "Point", "coordinates": [ 522126.912279569427483, 5027003.337921085767448 ] } },
{ "type": "Feature", "properties": { "sensor_id": "9999", "station_id": 683, "station_name": "Cassano d'Adda 2-v.Milano", "municipality": "Cassano d'Adda", "province": "MI", "no2": 31.017430840163936, "no2_std": 15.408321690257123, "n_valid": 7808, "elevation": 133.0, "latitude": 45.52647322, "longitude": 9.515991 }, "geometry": { "type": "Point", "coordinates": [ 540293.820743583724834, 5041567.080172986723483 ] } }
]
}
